{"total":1467,"type":"FeatureCollection","features":[{"geometry":{"type":"Point","coordinates":[-89.64835,39.8598]},"type":"Feature","id":"SG_1x33xOMssrLtJRe4XzZt4L_39.859800_-89.648350@1303262923","properties":{"province":"IL","distance":0.5685891546248061,"name":"Langley Automobile And Industrial Repair","tags":["handyman"],"country":"US","phone":"+1 217 679 2432","href":"http://api.simplegeo.com/1.0/features/SG_1x33xOMssrLtJRe4XzZt4L_39.859800_-89.648350@1303262923.json","city":"Springfield","address":"315 E Camp Sangamo Rd","owner":"simplegeo","postcode":"62707","classifiers":[{"category":"Building & Trades","type":"Services","subcategory":"Construction"}]}},{"geometry":{"type":"Point","coordinates":[-89.64534,39.858715]},"type":"Feature","id":"SG_7ICKyX9M6ZRCJbA1ER1rxc_39.858715_-89.645340@1303262923","properties":{"province":"IL","distance":0.6022344701601482,"name":"Petals N Lace","city":"Springfield","country":"US","phone":"+1 217 544 0988","href":"http://api.simplegeo.com/1.0/features/SG_7ICKyX9M6ZRCJbA1ER1rxc_39.858715_-89.645340@1303262923.json","address":"3941 N 8th Street Rd","owner":"simplegeo","postcode":"62707","classifiers":[{"category":"Shopping","type":"Retail Goods","subcategory":"Florist"}]}},{"geometry":{"type":"Point","coordinates":[-89.65937,39.852039]},"type":"Feature","id":"SG_2rW7vPFsastQM206upwAsX_39.852039_-89.659370@1303262923","properties":{"province":"IL","distance":0.8313982715746087,"name":"Daniels, Rock Ii","tags":["loan"],"country":"US","phone":"+1 217 544 1313","href":"http://api.simplegeo.com/1.0/features/SG_2rW7vPFsastQM206upwAsX_39.852039_-89.659370@1303262923.json","city":"Springfield","address":"3484 Lightfoot Ln","owner":"simplegeo","postcode":"62707","classifiers":[{"category":"Banks & Credit Unions","type":"Services","subcategory":"Financial Services"}]}},{"geometry":{"type":"Point","coordinates":[-89.6453475952,39.8623046875]},"type":"Feature","id":"SG_2xCX28kdplF2sDv6ggZTMQ_39.862305_-89.645348@1306269739","properties":{"province":"Haute Normandie","distance":0.9258790483697019,"name":"Briot International S.a.","country":"FR","classifiers":[],"phone":"+33 2 32 98 91 32","href":"http://api.simplegeo.com/1.0/features/SG_2xCX28kdplF2sDv6ggZTMQ_39.862305_-89.645348@1306269739.json","address":"B.P. 8, 27340 Pont de l'Arche^^2, Rue Roger Bonnet, 27340 Pont de l'Arche","owner":"simplegeo","orig_category":"Non-Classified Establishments","postcode":"27340"}},{"geometry":{"type":"Point","coordinates":[-89.664478,39.866178]},"type":"Feature","id":"SG_6AXy8pECZOYtZ2q3nnvIwu_39.866178_-89.664478@1303262923","properties":{"province":"IL","distance":1.7348987914302352,"name":"Mary Atkins Massage Therapy","city":"Springfield","country":"US","phone":"+1 217 544 4450","href":"http://api.simplegeo.com/1.0/features/SG_6AXy8pECZOYtZ2q3nnvIwu_39.866178_-89.664478@1303262923.json","address":"4285 N Walnut Street Rd","owner":"simplegeo","postcode":"62707","classifiers":[{"category":"Personal","type":"Services","subcategory":"Massage"}]}},{"geometry":{"type":"Point","coordinates":[-89.638512,39.84182]},"type":"Feature","id":"SG_0GxCYlMzG54al8if5eTleV_39.841820_-89.638512@1303262922","properties":{"website":"http://www.turaskymeats.com","distance":1.7758877676524085,"name":"Y & T Packing Company","tags":["meat-wholesale","grill","market","supply"],"country":"US","province":"IL","phone":"+1 217 522 3345","href":"http://api.simplegeo.com/1.0/features/SG_0GxCYlMzG54al8if5eTleV_39.841820_-89.638512@1303262922.json","city":"Springfield","address":"1129 Taintor Rd","owner":"simplegeo","postcode":"62702","classifiers":[{"category":"Wholesale","type":"Manufacturing & Wholesale Goods","subcategory":"Meat"},{"category":"Recreation","type":"Entertainment","subcategory":"Barbecue"},{"category":"Food & Beverages","type":"Retail Goods","subcategory":"Meat & Fish"}]}},{"geometry":{"type":"Point","coordinates":[-89.663757,39.841419]},"type":"Feature","id":"SG_7UNbPKk0PBO726047M3bRn_39.841419_-89.663757@1303262923","properties":{"province":"IL","distance":1.8868258528144108,"name":"Refreshment Services Pepsi","tags":["syrups-wholesale","manufacturer"],"country":"US","phone":"+1 217 522 6321","href":"http://api.simplegeo.com/1.0/features/SG_7UNbPKk0PBO726047M3bRn_39.841419_-89.663757@1303262923.json","city":"Springfield","address":"3400 Solar Ave","owner":"simplegeo","postcode":"62707","classifiers":[{"category":"Manufacturing","type":"Manufacturing & Wholesale Goods","subcategory":"Pet Food"}]}},{"geometry":{"type":"Point","coordinates":[-89.628616,39.84697]},"type":"Feature","id":"SG_6SZTGqNgBfhvews5ME00uV_39.846970_-89.628616@1303262922","properties":{"province":"IL","distance":2.0587552109591067,"name":"Mid Central Illinois Regional Council of Carpenters & Joiners","tags":["carpenter"],"country":"US","phone":"+1 217 744 1831","href":"http://api.simplegeo.com/1.0/features/SG_6SZTGqNgBfhvews5ME00uV_39.846970_-89.628616@1303262922.json","city":"Springfield","address":"1 Kalmia Way","owner":"simplegeo","postcode":"62702","classifiers":[{"category":"Building & Trades","type":"Services","subcategory":"Construction"}]}},{"geometry":{"type":"Point","coordinates":[-89.628423,39.845177]},"type":"Feature","id":"SG_5uVwNXKmVAfik2yv3E4VT2_39.845177_-89.628423@1303262922","properties":{"province":"IL","distance":2.1662994518317062,"name":"Garagestud.Com","tags":["materials-wholesale","floor","manufacturer"],"country":"US","phone":"+1 217 853 3275","href":"http://api.simplegeo.com/1.0/features/SG_5uVwNXKmVAfik2yv3E4VT2_39.845177_-89.628423@1303262922.json","city":"Springfield","address":"2005 Cory Dr","owner":"simplegeo","postcode":"62702","classifiers":[{"category":"Manufacturing","type":"Manufacturing & Wholesale Goods","subcategory":"Building Materials"}]}},{"geometry":{"type":"Point","coordinates":[-89.676582,39.852692]},"type":"Feature","id":"SG_12eVjhHntyxTFgGZMvmI8s_39.852692_-89.676582@1303262923","properties":{"province":"IL","distance":2.2497254601794427,"name":"Standardaero","tags":["polishing","aircraft","washing"],"country":"US","phone":"+1 217 544 3431","href":"http://api.simplegeo.com/1.0/features/SG_12eVjhHntyxTFgGZMvmI8s_39.852692_-89.676582@1303262923.json","city":"Springfield","address":"1200 N Airport Dr","owner":"simplegeo","postcode":"62707","classifiers":[{"category":"Retail","type":"Services","subcategory":"Car Wash"}]}},{"geometry":{"type":"Point","coordinates":[-89.676102,39.859501]},"type":"Feature","id":"SG_41DgtgZggoRJy17myxOp2N_39.859501_-89.676102@1303262923","properties":{"website":"www.longbridgegc.com","distance":2.252845744652466,"name":"Long Bridge Golf Course","city":"Springfield","country":"US","province":"IL","phone":"+1 217 744 8311","href":"http://api.simplegeo.com/1.0/features/SG_41DgtgZggoRJy17myxOp2N_39.859501_-89.676102@1303262923.json","address":"1055 W Camp Sangamo Rd","owner":"simplegeo","postcode":"62707","classifiers":[{"category":"Sports & Exercise","type":"Entertainment","subcategory":"Golf"}]}},{"geometry":{"type":"Point","coordinates":[-89.623318,39.851888]},"type":"Feature","id":"SG_7lpI2MVSlozNx0mXs13XFQ_39.851888_-89.623318@1299784598","properties":{"province":"IL","distance":2.335513702255276,"name":"Casey's General Store","menulink":"http://www.allmenus.com/il/capital/226434-caseys-general-store/menu/","country":"US","tags":["american","pizza"],"phone":"+1 217 525 8670","href":"http://api.simplegeo.com/1.0/features/SG_7lpI2MVSlozNx0mXs13XFQ_39.851888_-89.623318@1299784598.json","city":"Springfield","address":"3961 N Peoria Rd","owner":"simplegeo","postcode":"62702","classifiers":[{"category":"Restaurant","type":"Food & Drink","subcategory":""}]}},{"geometry":{"type":"Point","coordinates":[-89.622473,39.853017]},"type":"Feature","id":"SG_6XNirGQZPCfVoHdvZGwqGd_39.853017_-89.622473@1303262922","properties":{"province":"IL","distance":2.392463388358395,"name":"Blossoms To Beads","tags":["bead","beads-wholesale","manufacturer"],"country":"US","phone":"+1 217 522 5061","href":"http://api.simplegeo.com/1.0/features/SG_6XNirGQZPCfVoHdvZGwqGd_39.853017_-89.622473@1303262922.json","city":"Springfield","address":"2119 Catalina Ln","owner":"simplegeo","postcode":"62702","classifiers":[{"category":"Wholesale","type":"Manufacturing & Wholesale Goods","subcategory":"Jewelry"},{"category":"Shopping","type":"Retail Goods","subcategory":"Crafts & Fabrics"}]}},{"geometry":{"type":"Point","coordinates":[-89.6640548706,39.8340454102]},"type":"Feature","id":"SG_3GHeKpypQXf1I5Lyg6n4xn_39.834045_-89.664055@1306268267","properties":{"province":"Kärnten","distance":2.5990633599283606,"name":"Schöffmann Maximilian","city":"Landskron","country":"AT","classifiers":[],"phone":"+43 4242 41619","href":"http://api.simplegeo.com/1.0/features/SG_3GHeKpypQXf1I5Lyg6n4xn_39.834045_-89.664055@1306268267.json","address":"Nr 4","owner":"simplegeo","orig_category":"GasthÃ¤user U GasthÃ¶fe","postcode":"9523"}},{"geometry":{"type":"Point","coordinates":[-89.620629,39.847699]},"type":"Feature","id":"SG_3FxnclfAKqZNzDsUs7UGX4_39.847699_-89.620629@1303262922","properties":{"province":"IL","distance":2.664744842421494,"name":"Modern Paving & Landscaping","tags":["asphalt","metal","snow","removal","paving","contractor"],"country":"US","phone":"+1 217 528 4122","href":"http://api.simplegeo.com/1.0/features/SG_3FxnclfAKqZNzDsUs7UGX4_39.847699_-89.620629@1303262922.json","city":"Springfield","address":"3500 Norman Rd","owner":"simplegeo","postcode":"62702","classifiers":[{"category":"Building & Trades","type":"Services","subcategory":"Landscaping Services"},{"category":"Wholesale","type":"Manufacturing & Wholesale Goods","subcategory":"Scrap"},{"category":"Building & Trades","type":"Services","subcategory":"Construction"},{"category":"Manufacturing","type":"Manufacturing & Wholesale Goods","subcategory":"Building Materials"}]}},{"geometry":{"type":"Point","coordinates":[-89.650726,39.830811]},"type":"Feature","id":"SG_7C1oGlOikcOirN5Ouv1iqH_39.830811_-89.650726@1303262922","properties":{"province":"IL","distance":2.6822858775296585,"name":"Illinois Certification Board","tags":["family","counselors-licensed","psychologist","individual","marriage","child","professional","counselor"],"country":"US","phone":"+1 217 698 8110","href":"http://api.simplegeo.com/1.0/features/SG_7C1oGlOikcOirN5Ouv1iqH_39.830811_-89.650726@1303262922.json","city":"Springfield","address":"401 E Sangamon Ave","owner":"simplegeo","postcode":"62702","classifiers":[{"category":"Health Services","type":"Services","subcategory":"Doctor"},{"category":"Social Services","type":"Services","subcategory":""},{"category":"Personal","type":"Services","subcategory":""}]}},{"geometry":{"type":"Point","coordinates":[-89.650726,39.830811]},"type":"Feature","id":"SG_4Wi6BUS7LfxN2J6DtKqLD2_39.830811_-89.650726@1303262922","properties":{"province":"IL","distance":2.6822858775296585,"name":"Association Of Halfway House Alcoholism","city":"Springfield","country":"US","phone":"+1 217 523 8110","href":"http://api.simplegeo.com/1.0/features/SG_4Wi6BUS7LfxN2J6DtKqLD2_39.830811_-89.650726@1303262922.json","address":"401 E Sangamon Ave","owner":"simplegeo","postcode":"62702","classifiers":[{"category":"Organizations","type":"Services","subcategory":"Community Association"}]}},{"geometry":{"type":"Point","coordinates":[-89.65435,39.830742]},"type":"Feature","id":"SG_34KzeO652T9PSCjXBw9ldW_39.830742_-89.654350@1303262922","properties":{"province":"IL","distance":2.7109790391849207,"name":"Calvary Cemetery Association","tags":["cemetery"],"country":"US","phone":"+1 217 523 3726","href":"http://api.simplegeo.com/1.0/features/SG_34KzeO652T9PSCjXBw9ldW_39.830742_-89.654350@1303262922.json","city":"Springfield","address":"2001 N 1st St","owner":"simplegeo","postcode":"62702","classifiers":[{"category":"Retail","type":"Services","subcategory":"Funeral Services"}]}},{"geometry":{"type":"Point","coordinates":[-89.644653,39.830891]},"type":"Feature","id":"SG_6EsW0whzNTTfbdma6QTjMx_39.830891_-89.644653@1303262922","properties":{"website":"http://www.standingupforillinois.org","distance":2.7177218840709516,"name":"Illinois Department Of Agriculture","tags":["parish","agricultural","government-county","consultant"],"country":"US","province":"IL","phone":"+1 217 782 4231","href":"http://api.simplegeo.com/1.0/features/SG_6EsW0whzNTTfbdma6QTjMx_39.830891_-89.644653@1303262922.json","city":"Springfield","address":"801 E Sangamon Ave","owner":"simplegeo","postcode":"62702","classifiers":[{"category":"Professional","type":"Services","subcategory":"Management & Consulting"},{"category":"Government","type":"Public Place","subcategory":"Office"}]}},{"geometry":{"type":"Point","coordinates":[-89.683267,39.852398]},"type":"Feature","id":"SG_5tpyifU5TY0YNDBIMFsVpB_39.852398_-89.683267@1303262923","properties":{"province":"IL","distance":2.8206565931121323,"name":"Quality Repair Service","tags":["handyman"],"country":"US","phone":"+1 217 744 1127","href":"http://api.simplegeo.com/1.0/features/SG_5tpyifU5TY0YNDBIMFsVpB_39.852398_-89.683267@1303262923.json","city":"Springfield","address":"1715 Tozer Rd","owner":"simplegeo","postcode":"62707","classifiers":[{"category":"Building & Trades","type":"Services","subcategory":"Construction"}]}},{"geometry":{"type":"Point","coordinates":[-89.66433,39.831772]},"type":"Feature","id":"SG_0gnzkTQw79m4SLAxzJKVXt_39.831772_-89.664330@1303262923","properties":{"province":"IL","distance":2.8370141763471883,"name":"Jayco Construction","tags":["home","builder","demolition","contractor"],"country":"US","phone":"+1 217 522 8621","href":"http://api.simplegeo.com/1.0/features/SG_0gnzkTQw79m4SLAxzJKVXt_39.831772_-89.664330@1303262923.json","city":"Springfield","address":"2225 J David Jones Pkwy","owner":"simplegeo","postcode":"62707","classifiers":[{"category":"Manufacturing","type":"Manufacturing & Wholesale Goods","subcategory":"Buildings"},{"category":"Building & Trades","type":"Services","subcategory":"Construction"}]}},{"geometry":{"type":"Point","coordinates":[-89.66433,39.831772]},"type":"Feature","id":"SG_1M6A6gShuSZF8Uk3xuRoRy_39.831772_-89.664330@1303262923","properties":{"website":"http://www.capitolstorage.net","distance":2.8370141763471883,"name":"Capitol Storage","tags":["fiber","household","material","commercial","packaging","boxes-corrugated"],"country":"US","province":"IL","phone":"+1 217 522 0300","href":"http://api.simplegeo.com/1.0/features/SG_1M6A6gShuSZF8Uk3xuRoRy_39.831772_-89.664330@1303262923.json","city":"Springfield","address":"2225 J David Jones Pkwy","owner":"simplegeo","postcode":"62707","classifiers":[{"category":"Shopping","type":"Retail Goods","subcategory":""},{"category":"Manufacturing","type":"Manufacturing & Wholesale Goods","subcategory":"Paper Products"},{"category":"Retail","type":"Services","subcategory":"Storage"}]}},{"geometry":{"type":"Point","coordinates":[-89.642867,39.830055]},"type":"Feature","id":"SG_7QMVNHVsxAgcYQ1DmROp8H_39.830055_-89.642867@1303262922","properties":{"province":"IL","distance":2.8397634420875497,"name":"Jans Beauty Shop","city":"Springfield","country":"US","phone":"+1 217 544 2874","href":"http://api.simplegeo.com/1.0/features/SG_7QMVNHVsxAgcYQ1DmROp8H_39.830055_-89.642867@1303262922.json","address":"2108 N 9th St","owner":"simplegeo","postcode":"62702","classifiers":[{"category":"Personal","type":"Services","subcategory":"Beauty Salon"}]}},{"geometry":{"type":"Point","coordinates":[-89.617203,39.8592]},"type":"Feature","id":"SG_0xr42E2vGd4MYyZVOm2ZE6_39.859200_-89.617203@1303262922","properties":{"province":"IL","distance":2.8721785994150806,"name":"Riverside Park Campground","tags":["amateur","team"],"country":"US","phone":"+1 217 753 0630","href":"http://api.simplegeo.com/1.0/features/SG_0xr42E2vGd4MYyZVOm2ZE6_39.859200_-89.617203@1303262922.json","city":"Springfield","address":"4105 Sandhill Rd","owner":"simplegeo","postcode":"62702","classifiers":[{"category":"Sports & Exercise","type":"Entertainment","subcategory":"Sports Center"}]}},{"geometry":{"type":"Point","coordinates":[-89.617104,39.859402]},"type":"Feature","id":"SG_2hZb7S93UAWtRP1M5UCpSv_39.859402_-89.617104@1303262922","properties":{"province":"IL","distance":2.884294844061092,"name":"Montessori Children's House Preschool & Elementary","tags":["elementary","day"],"country":"US","phone":"+1 217 544 7702","href":"http://api.simplegeo.com/1.0/features/SG_2hZb7S93UAWtRP1M5UCpSv_39.859402_-89.617104@1303262922.json","city":"Springfield","address":"4147 Sandhill Rd","owner":"simplegeo","postcode":"62702","classifiers":[{"category":"Social Services","type":"Services","subcategory":"Child Care"},{"category":"Education","type":"Public Place","subcategory":"Preschool"},{"category":"Education","type":"Public Place","subcategory":"School"}]}}]}